Time,Latitude,Longitude,Altitude,Timestamp,Horizontal_accuracy,Vertical_accuracy,Speed,Course,Pitch,Roll,Yaw,Acc_X,Acc_Y,Acc_Z,Gra_X,Gra_Y,Gra_Z,Uacc_X,Uacc_Y,Uacc_Z,Com_X,Com_Y,Com_Z,Accuracy
2021-09-02 09:38:15,34.329030965486844,134.05731123884587,8.81722640991211,1630543095.0000753,10.0,4.0,0.5,70.6640625,0.5621963247268935,-0.29587760462259766,1.6882779849050003,-0.18878173828125,-0.53076171875,-0.8505706787109375,-0.24670138955116272,-0.533045768737793,-0.8093211054801941,0.05791965126991272,0.0022840499877929688,-0.04124957323074341,-2.81951904296875,-11.504997253417969,-10.2978515625,2
2021-09-02 09:38:15,34.329030965486844,134.05731123884587,8.81722640991211,1630543095.566966,10.0,4.0,0.5,70.6640625,0.9853119989330901,-0.5305479041009115,1.960301742365063,-0.316741943359375,-1.2272491455078125,-1.0764923393726349,-0.27962052822113037,-0.8334445357322693,-0.4766367971897125,-0.03712141513824463,-0.3938046097755432,-0.5998555421829224,1.5226669311523438,-8.241279602050781,5.10235595703125,2
2021-09-02 09:38:16,34.329030965486844,134.05731123884587,8.89822006225586,1630543096.0000472,10.0,4.0,0.0,-1.0,0.6776051696184374,-0.5002519185050422,1.7905171542423044,-0.4014892876148224,-0.612457275390625,-0.690399169921875,-0.37368133664131165,-0.6269290447235107,-0.6836097240447998,-0.027807950973510742,0.014471769332885742,-0.006789445877075195,4.9056243896484375,-14.482917785644531,9.972900390625,2
2021-09-02 09:38:16,34.329030965486844,134.05731123884587,8.89822006225586,1630543096.211518,10.0,4.0,0.0,-1.0,0.6767055715102701,-0.4977820414795669,1.8116367150993038,-0.4312134087085724,-0.5606842041015625,-0.598876953125,-0.3722608983516693,-0.6262279748916626,-0.6850258111953735,-0.058952510356903076,0.0655437707901001,0.08614885807037354,4.01507568359375,-16.11670684814453,11.68511962890625,2
2021-09-02 09:38:16,34.329030965486844,134.05731123884587,8.89822006225586,1630543096.211518,10.0,4.0,0.0,-1.0,0.6918837419194759,-0.519172028551777,1.8480531356386118,-0.2181396186351776,-0.7238311767578125,-0.7050933837890625,-0.382066935300827,-0.6379888653755188,-0.6685769557952881,0.16392731666564941,-0.0858423113822937,-0.036516427993774414,2.4625167846679688,-14.493095397949219,11.28521728515625,2
2021-09-02 09:38:16,34.329030965486844,134.05731123884587,8.89822006225586,1630543096.42387,10.0,4.0,0.0,-1.0,0.6234786721425692,-0.4748020264300503,1.7941689022902236,-0.3406829833984375,-0.572998046875,-0.930938720703125,-0.37114834785461426,-0.583862841129303,-0.7220478653907776,0.030465364456176758,0.010864794254302979,-0.2088908553123474,4.650054931640625,-18.427085876464844,11.5819091796875,2
2021-09-02 09:38:17,34.329030965486844,134.05731123884587,8.89822006225586,1630543096.630805,10.0,4.0,0.0,-1.0,0.6483839758783827,-0.5301708363155342,1.8428021474571485,-0.4287719428539276,-0.5690154433250427,-0.6697540283203125,-0.403058260679245,-0.6038991212844849,-0.6876408457756042,-0.025713682174682617,0.03488367795944214,0.017886817455291748,2.9990234375,-17.33043670654297,12.39642333984375,2
2021-09-02 09:38:17,34.32903729382374,134.05732180004387,9.62624740600586,1630543097.0000205,10.0,4.0,0.23000000417232513,74.8828125,0.6589697113276163,-0.5479136191547644,1.8579389323250302,-0.4522400200366974,-0.594757080078125,-0.664520263671875,-0.41184163093566895,-0.6123026013374329,-0.6748866438865662,-0.04039838910102844,0.01754552125930786,0.010366380214691162,2.19891357421875,-16.591468811035156,12.85955810546875,2
2021-09-02 09:38:17,34.32903729382374,134.05732180004387,9.62624740600586,1630543097.2637758,10.0,4.0,0.23000000417232513,74.8828125,0.7544203045833953,-0.36384071617923197,1.6648312035858746,0.3781890869140625,-0.7778472900390625,-0.8330230712890625,-0.25930851697921753,-0.6848663687705994,-0.6809678077697754,0.63749760389328,-0.09298092126846313,-0.1520552635192871,6.4284820556640625,-10.195144653320312,7.611572265625,2
2021-09-02 09:38:17,34.32903729382374,134.05732180004387,9.62624740600586,1630543097.2637758,10.0,4.0,0.23000000417232513,74.8828125,0.778188812513599,-0.2579623243403882,1.6843581080461676,-0.225311279296875,-0.7534179091453552,-0.679412841796875,-0.1816864013671875,-0.7019906640052795,-0.6886212229728699,-0.0436248779296875,-0.051427245140075684,0.009208381175994873,4.311920166015625,-9.652351379394531,7.32415771484375,2
2021-09-02 09:38:17,34.32903729382374,134.05732180004387,9.62624740600586,1630543097.475754,10.0,4.0,0.23000000417232513,74.8828125,0.7821589612678783,-0.2433468302547486,1.6452236347795666,-0.07958981394767761,-0.6771239638328552,-0.7060089111328125,-0.1709299087524414,-0.7048125863075256,-0.6884925961494446,0.0913400948047638,0.02768862247467041,-0.01751631498336792,4.3154296875,-9.092750549316406,6.41900634765625,2
2021-09-02 09:38:18,34.32904135904678,134.05732749973802,10.52999496459961,1630543097.9999938,5.0,4.0,0.17000000178813934,-1.0,0.7400496315158744,-0.11901005530956642,1.527721232953672,0.4133453443646431,-0.3845367431640625,-0.8705291152000427,-0.08767389506101608,-0.6743245720863342,-0.733211874961853,0.5010192394256592,0.28978782892227173,-0.1373172402381897,6.3090362548828125,-7.897239685058594,6.26544189453125,2
2021-09-02 09:38:18,34.32904135904678,134.05732749973802,10.52999496459961,1630543097.9999938,5.0,4.0,0.17000000178813934,-1.0,0.670344246502678,-0.15517732364563727,1.5925242720513786,-0.1259460523724556,-0.646728515625,-0.7506256103515625,-0.12111074477434158,-0.6212557554244995,-0.7741921544075012,-0.004835307598114014,-0.02547276020050049,0.02356654405593872,4.56280517578125,-10.889068603515625,5.237060546875,2
2021-09-02 09:38:18,34.32904135904678,134.05732749973802,10.52999496459961,1630543098.1137009,5.0,4.0,0.17000000178813934,-1.0,0.6339576765367161,-0.1930760961041825,1.6260865581397967,-0.1598052829504013,-0.5899505019187927,-0.666961669921875,-0.15459468960762024,-0.5923380255699158,-0.7907187342643738,-0.005210593342781067,0.002387523651123047,0.12375706434249878,4.284271240234375,-12.256874084472656,5.63128662109375,2
2021-09-02 09:38:18,34.32904135904678,134.05732749973802,10.52999496459961,1630543098.33014,5.0,4.0,0.17000000178813934,-1.0,0.1297442121463844,-0.1424422571338898,1.5274766452636537,-0.081298828125,-0.3063812255859375,-1.13153076171875,-0.1407678723335266,-0.1293805092573166,-0.9815523624420166,0.05946904420852661,-0.1770007163286209,-0.1499783992767334,-1.6097869873046875,-19.237693786621094,-1.86407470703125,2
2021-09-02 09:38:18,34.32904135904678,134.05732749973802,10.52999496459961,1630543098.535639,5.0,4.0,0.17000000178813934,-1.0,0.01975367427310737,-0.06086187037387441,1.48259101681743,-0.0455780029296875,-0.0130767822265625,-0.9892425537109375,-0.060812436044216156,-0.019752388820052147,-0.9979537725448608,0.015234433114528656,0.006675606593489647,0.00871121883392334,-4.3781585693359375,-25.34600067138672,7.741943359375,2
2021-09-02 09:38:19,34.32904135904678,134.05732749973802,10.74978256225586,1630543098.9999769,5.0,4.0,0.0,-1.0,0.018248457302110034,-0.11348182906707133,1.461271830612888,-0.0630035400390625,0.0044097900390625,-0.9622344970703125,-0.11321955919265747,-0.018247444182634354,-0.9934024214744568,0.05021601915359497,0.022657234221696854,0.031167924404144287,-6.578712463378906,-26.884376525878906,11.34210205078125,2
2021-09-02 09:38:19,34.32904135904678,134.05732749973802,10.74978256225586,1630543098.9999769,5.0,4.0,0.0,-1.0,0.03669300619450967,-0.11686282081907415,1.4858349555142216,-0.1337890625,-0.0405120886862278,-1.036041259765625,-0.1165185198187828,-0.03668477386236191,-0.9925107955932617,-0.017270542681217194,-0.0038273148238658905,-0.04353046417236328,-5.0902252197265625,-24.147239685058594,7.6053466796875,2
2021-09-02 09:38:19,34.32904135904678,134.05732749973802,10.74978256225586,1630543099.18314,5.0,4.0,0.0,-1.0,0.05295240933114028,-0.13598451029425285,1.4679191986927906,-0.14373779296875,-0.0685272179543972,-1.0175323486328125,-0.13537578284740448,-0.052927665412425995,-0.9893796443939209,-0.00836201012134552,-0.015599552541971207,-0.0281527042388916,-3.364105224609375,-22.442726135253906,4.5391845703125,2
2021-09-02 09:38:19,34.32904135904678,134.05732749973802,10.74978256225586,1630543099.395146,5.0,4.0,0.0,-1.0,0.06178516445571086,-0.1273300083836735,1.4322693042817622,-0.0749206393957138,-0.0611572302877903,-0.98785400390625,-0.12674391269683838,-0.061745863407850266,-0.9900118112564087,0.05182327330112457,0.000588633120059967,0.0021578073501586914,-1.7368621826171875,-22.497894287109375,4.31756591796875,2
2021-09-02 09:38:20,34.32904135904678,134.05732749973802,10.74978256225586,1630543099.6067572,5.0,4.0,0.0,-1.0,0.06349171678335543,-0.1195909784440926,1.4561248379448541,-0.173919677734375,-0.0133514404296875,-1.045318603515625,-0.11906572431325912,-0.06344906985759735,-0.9908570051193237,-0.054853953421115875,0.05009762942790985,-0.05446159839630127,-1.8295364379882812,-22.321868896484375,4.12017822265625,2
2021-09-02 09:38:20,34.329046639645775,134.0573393182215,11.35207748413086,1630543099.9999528,5.0,4.0,0.28999999165534973,80.859375,0.06865497502651356,-0.11410596759183211,1.3509488868260107,-0.2604217529296875,0.1942443698644638,-1.1898651123046875,-0.1135902851819992,-0.06860105693340302,-0.9911564588546753,-0.1468314677476883,0.2628454267978668,-0.1987086534500122,0.77960205078125,-23.003005981445312,5.0994873046875,2
2021-09-02 09:38:20,34.329046639645775,134.0573393182215,11.35207748413086,1630543100.265394,5.0,4.0,0.28999999165534973,80.859375,0.09332574155737888,-0.10096615117217929,1.0919257610726347,0.0730743482708931,-0.1298217698931694,-1.0655669569969177,-0.10035606473684311,-0.09319032728672028,-0.9905776977539062,0.1734304130077362,-0.03663144260644913,-0.07498925924301147,7.2154083251953125,-22.076187133789062,7.20111083984375,2
2021-09-02 09:38:20,34.329046639645775,134.0573393182215,11.35207748413086,1630543100.265394,5.0,4.0,0.28999999165534973,80.859375,0.11220927407282356,-0.08896599056710017,0.9466047372369204,-0.1690521240234375,-0.147674560546875,-0.9439239501953125,-0.08828991651535034,-0.11197395622730255,-0.9897811412811279,-0.08076220750808716,-0.03570060431957245,0.04585719108581543,10.943389892578125,-19.339370727539062,8.97711181640625,2
2021-09-02 09:38:20,34.329046639645775,134.0573393182215,11.35207748413086,1630543100.479398,5.0,4.0,0.28999999165534973,80.859375,0.1121279514054425,-0.058366112544599155,0.8954768037682168,-0.0359649658203125,-0.1210174560546875,-0.954620361328125,-0.05796666443347931,-0.11189313977956772,-0.9920281171798706,0.02200169861316681,-0.009124316275119781,0.037407755851745605,13.013580322265625,-17.630722045898438,10.13958740234375,2
2021-09-02 09:38:21,34.329046639645775,134.0573393182215,12.21468734741211,1630543100.999928,5.0,4.0,0.0,108.984375,0.11060740706240839,-0.03986420146985149,0.8961367682054648,0.0106201171875,-0.1142730638384819,-0.98468017578125,-0.039610106498003006,-0.11038201302289963,-0.9930996298789978,0.050230223685503006,-0.0038910508155822754,0.008419454097747803,13.7398681640625,-16.632362365722656,10.91827392578125,2
2021-09-02 09:38:21,34.329046639645775,134.0573393182215,12.21468734741211,1630543100.999928,5.0,4.0,0.0,108.984375,0.10549195829469044,-0.03972050963833422,0.9524362763639732,-0.0893402099609375,-0.1013183519244194,-0.99462890625,-0.03948931396007538,-0.10529640316963196,-0.9936565160751343,-0.04985089600086212,0.003978051245212555,-0.0009723901748657227,13.059844970703125,-15.838966369628906,11.0721435546875,2
2021-09-02 09:38:21,34.329046639645775,134.0573393182215,12.21468734741211,1630543101.11336,5.0,4.0,0.0,108.984375,0.1098320841755459,-0.04048725988616219,0.935425040572104,0.0266418419778347,-0.1019897535443306,-0.996368408203125,-0.04023231193423271,-0.1096113994717598,-0.9931599497795105,0.06687415391206741,0.007621645927429199,-0.003208458423614502,13.754852294921875,-15.019035339355469,11.039794921875,2
2021-09-02 09:38:21,34.329046639645775,134.0573393182215,12.21468734741211,1630543101.331228,5.0,4.0,0.0,108.984375,0.1234680247788354,-0.056931615000677505,0.9225657453676201,-0.1431274451315403,-0.3026275634765625,-1.0027923583984375,-0.05646770820021629,-0.12315456569194794,-0.99077969789505,-0.086659736931324,-0.17947299778461456,-0.012012660503387451,13.812759399414062,-14.190254211425781,10.66265869140625,2
2021-09-02 09:38:21,34.329046639645775,134.0573393182215,12.21468734741211,1630543101.548184,5.0,4.0,0.0,108.984375,0.11213977218342457,-0.06533640476064219,1.0333949433183693,-0.0878448486328125,-0.1110687255859375,-0.99078369140625,-0.06487984210252762,-0.11190488934516907,-0.9915986657142639,-0.02296500653028488,0.0008361637592315674,0.000814974308013916,11.806488037109375,-15.198013305664062,10.81304931640625,2
2021-09-02 09:38:22,34.32904429271289,134.05736412865488,12.71969223022461,1630543101.9999025,5.0,4.0,0.28999999165534973,184.21875,0.10935208500624036,-0.06379514565467988,1.054807037415445,-0.044815048575401306,-0.0983886644244194,-0.9888457655906677,-0.06337109208106995,-0.10913427919149399,-0.992004930973053,0.01855604350566864,0.010745614767074585,0.003159165382385254,11.252609252929688,-15.908317565917969,11.03839111328125,2
2021-09-02 09:38:22,34.32904429271289,134.05736412865488,12.71969223022461,1630543101.9999025,5.0,4.0,0.28999999165534973,184.21875,0.10687805268486561,-0.06261211897425956,1.065062395927653,-0.0361175462603569,-0.0975646898150444,-0.9921111464500427,-0.06221418455243111,-0.1066746935248375,-0.9923456311225891,0.026096638292074203,0.00911000370979309,0.00023448467254638672,10.984146118164062,-16.524391174316406,11.12591552734375,2
2021-09-02 09:38:22,34.32904429271289,134.05736412865488,12.71969223022461,1630543102.202193,5.0,4.0,0.28999999165534973,184.21875,0.10348965906081069,-0.08147227980610526,1.1237983311178648,-0.0969695970416069,-0.1004180833697319,-0.9818572402000427,-0.08094675838947296,-0.10330502688884735,-0.9913504123687744,-0.01602283865213394,0.002886943519115448,0.00949317216873169,8.94677734375,-17.266334533691406,11.0975341796875,2
2021-09-02 09:38:22,34.32904429271289,134.05736412865488,12.71969223022461,1630543102.424578,5.0,4.0,0.28999999165534973,184.21875,0.09951917201155745,-0.09430438512128779,1.1787980234469047,-0.1808319166302681,-0.123016357421875,-0.974639892578125,-0.09369874745607376,-0.09935498237609863,-0.9906306862831116,-0.08713316917419434,-0.023661375045776367,0.015990793704986572,7.180999755859375,-17.724281311035156,10.8408203125,2
2021-09-02 09:38:23,34.32904429271289,134.05736412865488,13.04629135131836,1630543102.9998775,5.0,4.0,0.0,209.1796875,0.09403569482913793,-0.08761663537942106,1.1870631215052347,-0.0773162916302681,-0.1059417724609375,-1.0122680068016052,-0.08711797744035721,-0.09389717131853104,-0.9917629361152649,0.009801685810089111,-0.012044601142406464,-0.020505070686340332,7.610321044921875,-18.017791748046875,11.21392822265625,2
2021-09-02 09:38:23,34.32904429271289,134.05736412865488,13.04629135131836,1630543102.9998775,5.0,4.0,0.0,209.1796875,0.0922390048655829,-0.06417818744355357,1.1683184181729023,-0.0393371507525444,-0.0842895358800888,-0.9873961806297302,-0.06386150419712067,-0.09210826456546783,-0.9936990141868591,0.024524353444576263,0.007818728685379028,0.006302833557128906,8.532867431640625,-18.160110473632812,11.22833251953125,2
2021-09-02 09:38:23,34.32904429271289,134.05736412865488,13.04629135131836,1630543103.0809941,5.0,4.0,0.0,209.1796875,0.09140161940598852,-0.051942514482714704,1.169381802689081,-0.0526275672018528,-0.0867156982421875,-0.9859161376953125,-0.05170243978500366,-0.09127441048622131,-0.994482696056366,-0.0009251274168491364,0.0045587122440338135,0.008566558361053467,8.866973876953125,-18.359909057617188,11.3604736328125,2
2021-09-02 09:38:23,34.32904429271289,134.05736412865488,13.04629135131836,1630543103.304305,5.0,4.0,0.0,209.1796875,0.09079055325588621,-0.04833188512659102,1.1656306736308926,-0.040679931640625,-0.0893707275390625,-0.995086669921875,-0.04811408743262291,-0.09066587686538696,-0.9947184324264526,0.0074341557919979095,0.0012951493263244629,-0.0003682374954223633,9.0640869140625,-18.311973571777344,11.20928955078125,2
2021-09-02 09:38:23,34.32904429271289,134.05736412865488,13.04629135131836,1630543103.509797,5.0,4.0,0.0,209.1796875,0.09077459366619829,-0.048456724853139004,1.1689801260604835,-0.0692138671875,-0.0894775316119194,-0.9931488037109375,-0.04823833703994751,-0.09064997732639313,-0.9947138428688049,-0.02097553014755249,0.0011724457144737244,0.0015650391578674316,8.795318603515625,-18.343040466308594,11.4415283203125,2
2021-09-02 09:38:24,34.32904429271289,134.05736412865488,13.93130111694336,1630543103.9998565,5.0,4.0,0.0,223.2421875,0.08953978187979673,-0.04607966243671592,1.172769032240441,-0.0586700439453125,-0.0882110595703125,-0.98736572265625,-0.045878827571868896,-0.08942018449306488,-0.9949367642402649,-0.012791216373443604,0.0012091249227523804,0.007571041584014893,9.077926635742188,-18.379119873046875,11.62445068359375,2
2021-09-02 09:38:24,34.32904429271289,134.05736412865488,13.93130111694336,1630543103.9998565,5.0,4.0,0.0,223.2421875,0.08826954486166529,-0.035430923409316535,1.1697747512210797,-0.0376434326171875,-0.0893707275390625,-0.9864349365234375,-0.035285599529743195,-0.08815496414899826,-0.9954816102981567,-0.0023578330874443054,-0.0012157633900642395,0.009046673774719238,9.360488891601562,-18.50970458984375,11.59228515625,2
2021-09-02 09:38:24,34.32904429271289,134.05736412865488,13.93130111694336,1630543104.14977,5.0,4.0,0.0,223.2421875,0.08694147212637954,-0.022224434862330878,1.1678914462462266,-0.003997802734375,-0.082763671875,-0.9910736083984375,-0.022138670086860657,-0.08683198690414429,-0.9959769248962402,0.018140867352485657,0.004068315029144287,0.004903316497802734,9.705856323242188,-18.541770935058594,11.731201171875,2
2021-09-02 09:38:24,34.32904429271289,134.05736412865488,13.93130111694336,1630543104.3635821,5.0,4.0,0.0,223.2421875,0.08667809686425616,-0.01960058526864761,1.1653961258451928,-0.00579833984375,-0.0892028734087944,-0.991851806640625,-0.01952575147151947,-0.08656959980726242,-0.996054470539093,0.01372741162776947,-0.0026332736015319824,0.004202663898468018,9.681732177734375,-18.587974548339844,11.799560546875,2
2021-09-02 09:38:25,34.32904429271289,134.05736412865488,13.93130111694336,1630543104.587339,5.0,4.0,0.0,223.2421875,0.08867568158682422,-0.03733676450040132,1.176881633771277,-0.0520019568502903,-0.08984375,-0.98590087890625,-0.03718142583966255,-0.08855951577425003,-0.995376706123352,-0.014820531010627747,-0.0012842342257499695,0.00947582721710205,8.826675415039062,-18.50678253173828,11.501220703125,2
2021-09-02 09:38:25,34.32903456970521,134.0573731811103,14.24721908569336,1630543104.9998357,5.0,4.0,0.5699999928474426,252.0703125,0.09013887207214084,-0.055815265856413436,1.1824344488797522,-0.073883056640625,-0.0894317626953125,-0.9862823486328125,-0.05555981025099754,-0.09001685678958893,-0.9943892955780029,-0.018323246389627457,0.0005850940942764282,0.00810694694519043,8.170120239257812,-18.374374389648438,11.435791015625,2
2021-09-02 09:38:25,34.32903456970521,134.0573731811103,14.24721908569336,1630543105.232952,5.0,4.0,0.5699999928474426,252.0703125,0.09176472772094098,-0.06621034290750016,1.1807216028325656,-0.051971435546875,-0.0952911451458931,-0.9937286376953125,-0.06588360667228699,-0.09163599461317062,-0.993610680103302,0.013912171125411987,-0.003655150532722473,-0.00011795759201049805,8.19024658203125,-18.180404663085938,11.2493896484375,2
2021-09-02 09:38:25,34.32903456970521,134.0573731811103,14.24721908569336,1630543105.232952,5.0,4.0,0.5699999928474426,252.0703125,0.09184028909905434,-0.07756197891068667,1.1997882258825951,-0.0786895751953125,-0.1130523681640625,-0.9706268310546875,-0.07715769112110138,-0.09171123802661896,-0.9927918910980225,-0.0015318840742111206,-0.021341130137443542,0.02216506004333496,7.5442657470703125,-18.331619262695312,11.232177734375,2
2021-09-02 09:38:25,34.32903456970521,134.0573731811103,14.24721908569336,1630543105.451262,5.0,4.0,0.5699999928474426,252.0703125,0.09959636240515313,-0.08852705633842785,1.2239595829440415,-0.1085052415728569,-0.1934661939740181,-0.91644287109375,-0.08797333389520645,-0.09943179041147232,-0.9911478161811829,-0.02053190767765045,-0.09403440356254578,0.07470494508743286,6.3905487060546875,-18.747718811035156,11.203125,2
2021-09-02 09:38:26,34.32903456970521,134.0573731811103,14.30459213256836,1630543105.9998155,5.0,3.0,0.0,257.34375,0.10312313329209627,-0.09475971517882202,1.2867561260514722,-0.0716094970703125,-0.1316375732421875,-0.9967193603515625,-0.09411530941724777,-0.10294045507907867,-0.9902250170707703,0.022505812346935272,-0.028697118163108826,-0.006494343280792236,4.4410858154296875,-20.95184326171875,10.2572021484375,2
2021-09-02 09:38:26,34.32903456970521,134.0573731811103,14.30459213256836,1630543105.9998155,5.0,3.0,0.0,257.34375,0.10214674046245326,-0.10659235053295198,1.3423553834822077,-0.0787506103515625,-0.0595245286822319,-0.9949645400047302,-0.10583606362342834,-0.10196919739246368,-0.9891415238380432,0.027085453271865845,0.04244466871023178,-0.005823016166687012,1.0105438232421875,-22.766685485839844,6.693603515625,2
2021-09-02 09:38:26,34.32903456970521,134.0573731811103,14.30459213256836,1630543106.089536,5.0,3.0,0.0,257.34375,0.09284941786706682,-0.11750048311980331,1.3909021311272034,-0.027023307979106903,-0.00457763671875,-1.0641937255859375,-0.11672533303499222,-0.09271606802940369,-0.9888270497322083,0.08970202505588531,0.08813843131065369,-0.07536667585372925,-1.044891357421875,-20.719207763671875,3.1646728515625,2
2021-09-02 09:38:26,34.32903456970521,134.0573731811103,14.30459213256836,1630543106.2964,5.0,3.0,0.0,257.34375,0.08273992733432844,-0.13438695201954184,1.4578051208876686,-0.118011474609375,-0.0551757887005806,-1.063568115234375,-0.13352446258068085,-0.08264555782079697,-0.9875935316085815,0.015512987971305847,0.02746976912021637,-0.07597458362579346,-2.5785675048828125,-18.672325134277344,3.45611572265625,2
2021-09-02 09:38:26,34.32903456970521,134.0573731811103,14.30459213256836,1630543106.509009,5.0,3.0,0.0,257.34375,0.07187757137078918,-0.14804109670428917,1.4783197747017256,-0.3560485690832138,-0.056671142578125,-1.0552978515625,-0.14712007343769073,-0.07181569933891296,-0.9865080714225769,-0.20892849564552307,0.015144556760787964,-0.0687897801399231,-2.94317626953125,-18.084243774414062,4.518798828125,2
2021-09-02 09:38:27,34.32903456970521,134.0573731811103,15.01168441772461,1630543106.9997933,5.0,3.0,0.0,252.421875,0.069119316504578,-0.1518465558024692,1.4961542283504234,-0.186126708984375,-0.05523681640625,-0.98870849609375,-0.15090250968933105,-0.06906429678201675,-0.9861331582069397,-0.035224199295043945,0.013827480375766754,-0.0025753378868103027,-3.8270645141601562,-18.119537353515625,5.46697998046875,2
2021-09-02 09:38:27,34.32903456970521,134.0573731811103,15.01168441772461,1630543106.9997933,5.0,3.0,0.0,252.421875,0.0629189382727759,-0.15200075327375998,1.4826038040893783,-0.1445464938879013,-0.0536498948931694,-1.0007476210594177,-0.1511165052652359,-0.06287743151187897,-0.986514151096344,0.006570011377334595,0.009227536618709564,-0.01423346996307373,-3.5030136108398438,-18.053245544433594,4.9630126953125,2
2021-09-02 09:38:27,34.32903456970521,134.0573731811103,15.01168441772461,1630543107.158814,5.0,3.0,0.0,252.421875,0.06433430709036675,-0.14936521933538902,1.4587314377556824,-0.1321563869714737,-0.0792236253619194,-0.9802398681640625,-0.14850260317325592,-0.06428993493318558,-0.9868200421333313,0.016346216201782227,-0.014933690428733826,0.006580173969268799,-2.663604736328125,-18.40874481201172,4.2967529296875,2
2021-09-02 09:38:27,34.32903456970521,134.0573731811103,15.01168441772461,1630543107.341495,5.0,3.0,0.0,252.421875,0.06752262771658461,-0.14578209607026246,1.4424909835718014,-0.1567840427160263,-0.0715789720416069,-0.9753875136375427,-0.1449352502822876,-0.06747133284807205,-0.9871379733085632,-0.011848792433738708,-0.004107639193534851,0.011750459671020508,-2.2542495727539062,-18.16590118408203,4.191162109375,2
2021-09-02 09:38:27,34.32903456970521,134.0573731811103,15.01168441772461,1630543107.5587249,5.0,3.0,0.0,252.421875,0.06974287519089126,-0.1449166931863909,1.438381661300383,-0.1387939453125,-0.07708740234375,-0.9723968505859375,-0.1440589278936386,-0.06968635320663452,-0.9871124029159546,0.005264982581138611,-0.0074010491371154785,0.01471555233001709,-2.1731414794921875,-18.137130737304688,3.73065185546875,2
2021-09-02 09:38:28,34.32903456970521,134.0573731811103,15.66286849975586,1630543107.9997773,5.0,3.0,0.0,243.6328125,0.0702101782063836,-0.14477017377672097,1.440586080842715,-0.1398162990808487,-0.0705718994140625,-0.9742279052734375,-0.14390958845615387,-0.07015250623226166,-0.987101137638092,0.004093289375305176,-0.0004193931818008423,0.012873232364654541,-1.8039321899414062,-18.113784790039062,3.95635986328125,2
2021-09-02 09:38:28,34.32903456970521,134.0573731811103,15.66286849975586,1630543107.9997773,5.0,3.0,0.0,243.6328125,0.06977423913864145,-0.14415088675545337,1.441091659110159,-0.1469726413488388,-0.0661163330078125,-0.9800414443016052,-0.14330263435840607,-0.069717638194561,-0.9872202277183533,-0.0036700069904327393,0.0036013051867485046,0.007178783416748047,-2.2932586669921875,-18.281402587890625,4.04522705078125,2
2021-09-02 09:38:28,34.32903456970521,134.0573731811103,15.66286849975586,1630543108.183552,5.0,3.0,0.0,243.6328125,0.06966521956702199,-0.1439792103488591,1.4412380163583856,-0.1385498046875,-0.068206787109375,-0.98248291015625,-0.1431342363357544,-0.06960888206958771,-0.9872523546218872,0.0045844316482543945,0.0014020949602127075,0.004769444465637207,-2.4256362915039062,-18.01093292236328,3.7808837890625,2
2021-09-02 09:38:28,34.32903456970521,134.0573731811103,15.66286849975586,1630543108.3985739,5.0,3.0,0.0,243.6328125,0.0694192826359628,-0.14384509769267625,1.4411992363340516,-0.140960693359375,-0.0678711012005806,-0.9814910888671875,-0.14300428330898285,-0.0693635419011116,-0.9872884750366211,0.002043589949607849,0.0014924407005310059,0.005797386169433594,-2.3870391845703125,-18.171363830566406,3.804443359375,2
2021-09-02 09:38:29,34.32903456970521,134.0573731811103,15.66286849975586,1630543108.614048,5.0,3.0,0.0,243.6328125,0.06923818657548879,-0.1434987383466979,1.441196146018616,-0.1450347900390625,-0.0681915283203125,-0.9835052490234375,-0.1426641196012497,-0.0691828802227974,-0.987350344657898,-0.002370670437812805,0.0009913519024848938,0.0038450956344604492,-2.2705078125,-18.151077270507812,4.06768798828125,2
2021-09-02 09:38:29,34.329029247196694,134.05737251055805,15.64944076538086,1630543108.9997587,5.0,3.0,0.18000000715255737,238.7109375,0.06913814578778452,-0.14343271292754073,1.441194423604445,-0.143096923828125,-0.0706329345703125,-0.9831695556640625,-0.1425999104976654,-0.0690830796957016,-0.9873666167259216,-0.0004970133304595947,-0.0015498548746109009,0.004197061061859131,-2.4838638305664062,-18.155731201171875,4.0753173828125,2
2021-09-02 09:38:29,34.329029247196694,134.05737251055805,15.64944076538086,1630543109.255309,5.0,3.0,0.18000000715255737,238.7109375,0.06915395964174516,-0.1435990077378787,1.4412346226096124,-0.1420898288488388,-0.0690917819738388,-0.9817351698875427,-0.14276394248008728,-0.06909885257482529,-0.9873417615890503,0.0006741136312484741,7.070600986480713e-06,0.005606591701507568,-2.3981781005859375,-18.17082977294922,4.15789794921875,2
2021-09-02 09:38:29,34.329029247196694,134.05737251055805,15.64944076538086,1630543109.255309,5.0,3.0,0.18000000715255737,238.7109375,0.0691095860907739,-0.14365136328517333,1.44125124877261,-0.1429290771484375,-0.0694580078125,-0.981842041015625,-0.14281608164310455,-0.06905458867549896,-0.9873373508453369,-0.00011299550533294678,-0.0004034191370010376,0.005495309829711914,-2.3538742065429688,-18.362701416015625,4.08819580078125,2
2021-09-02 09:38:29,34.329029247196694,134.05737251055805,15.64944076538086,1630543109.466237,5.0,3.0,0.18000000715255737,238.7109375,0.06904229132458202,-0.14364731299412611,1.4412384224261834,-0.1413116455078125,-0.0682830736041069,-0.984222412109375,-0.14281274378299713,-0.06898745149374008,-0.9873425364494324,0.0015010982751846313,0.0007043778896331787,0.003120124340057373,-2.225677490234375,-18.162857055664062,3.9677734375,2
2021-09-02 09:38:30,34.329029247196694,134.05737251055805,16.21236801147461,1630543109.9997447,5.0,3.0,0.0,238.7109375,0.06911121478337832,-0.14365672491684744,1.441260365608721,-0.1425781100988388,-0.0679626390337944,-0.9806975722312927,-0.14282135665416718,-0.06905621290206909,-0.9873364567756653,0.00024324655532836914,0.0010935738682746887,0.006638884544372559,-2.288238525390625,-18.134620666503906,3.830078125,2
2021-09-02 09:38:30,34.329029247196694,134.05737251055805,16.21236801147461,1630543109.9997447,5.0,3.0,0.0,238.7109375,0.0691096301236851,-0.14353600279896264,1.4412585954558272,-0.1420135498046875,-0.0670623853802681,-0.981597900390625,-0.14270217716693878,-0.06905463337898254,-0.9873538017272949,0.0006886273622512817,0.001992247998714447,0.005755901336669922,-2.2303924560546875,-18.218589782714844,4.0103759765625,2
2021-09-02 09:38:30,34.329029247196694,134.05737251055805,16.21236801147461,1630543110.1249042,5.0,3.0,0.0,238.7109375,0.0691008944378438,-0.1436985711463916,1.4412239985306927,-0.1423645168542862,-0.070953369140625,-0.9805145263671875,-0.14286278188228607,-0.06904591619968414,-0.987331211566925,0.0004982650279998779,-0.001907452940940857,0.006816685199737549,-2.4152145385742188,-18.095748901367188,4.0885009765625,2
2021-09-02 09:38:30,34.329029247196694,134.05737251055805,16.21236801147461,1630543110.336979,5.0,3.0,0.0,238.7109375,0.06909539730953726,-0.1436440295739492,1.441200317866957,-0.1417083740234375,-0.0691680908203125,-0.98272705078125,-0.1428089737892151,-0.06904043257236481,-0.9873393774032593,0.0011005997657775879,-0.00012765824794769287,0.004612326622009277,-2.47113037109375,-18.247337341308594,3.92803955078125,2
2021-09-02 09:38:30,34.329029247196694,134.05737251055805,16.21236801147461,1630543110.570424,5.0,3.0,0.0,238.7109375,0.0691493784668239,-0.1437106103690854,1.441230116526869,-0.1413421630859375,-0.0683135986328125,-0.9821014404296875,-0.14287418127059937,-0.06909428536891937,-0.9873261451721191,0.0015320181846618652,0.0007806867361068726,0.005224704742431641,-2.1985855102539062,-18.08428955078125,3.91998291015625,2
2021-09-02 09:38:31,34.329029247196694,134.05737251055805,16.48342514038086,1630543110.9997287,5.0,3.0,0.0,238.7109375,0.06906894295301945,-0.1437080762870217,1.4412157970517303,-0.141876220703125,-0.06866455078125,-0.9799652099609375,-0.14287248253822327,-0.0690140426158905,-0.9873320460319519,0.0009962618350982666,0.00034949183464050293,0.007366836071014404,-2.3719329833984375,-18.121116638183594,3.87432861328125,2
2021-09-02 09:38:31,34.329029247196694,134.05737251055805,16.48342514038086,1630543111.216099,5.0,3.0,0.0,238.7109375,0.0690340413870721,-0.14375254705454477,1.4412279977682472,-0.142181396484375,-0.0675048828125,-0.9830169677734375,-0.1429167240858078,-0.06897921860218048,-0.987328052520752,0.0007353276014328003,0.001474335789680481,0.004311084747314453,-2.4727783203125,-18.262908935546875,3.8741455078125,2
2021-09-02 09:38:31,34.329029247196694,134.05737251055805,16.48342514038086,1630543111.216099,5.0,3.0,0.0,238.7109375,0.06908656903994734,-0.14371602133287453,1.4412398110158826,-0.1416320651769638,-0.0714569017291069,-0.9819793105125427,-0.1428801417350769,-0.06903162598609924,-0.9873296618461609,0.0012480765581130981,-0.00242527574300766,0.005350351333618164,-2.3071746826171875,-18.422698974609375,3.763671875,2
2021-09-02 09:38:31,34.329029247196694,134.05737251055805,16.48342514038086,1630543111.449368,5.0,3.0,0.0,238.7109375,0.06907234625544464,-0.14364609202085793,1.441290911798693,-0.142608642578125,-0.0682372972369194,-0.9795379638671875,-0.14281123876571655,-0.0690174326300621,-0.9873406291007996,0.00020259618759155273,0.0007801353931427002,0.0078026652336120605,-2.1385574340820312,-18.17462158203125,3.9586181640625,2
2021-09-02 09:38:32,34.329029247196694,134.05737251055805,16.13845443725586,1630543111.999714,5.0,3.0,0.0,238.7109375,0.06910581157456494,-0.1436564704220433,1.4412975659799878,-0.143035888671875,-0.0697479248046875,-0.9819183349609375,-0.14282116293907166,-0.06905081868171692,-0.9873368740081787,-0.00021472573280334473,-0.0006971061229705811,0.005418539047241211,-2.5512008666992188,-18.13526153564453,4.08050537109375,2
2021-09-02 09:38:32,34.329029247196694,134.05737251055805,16.13845443725586,1630543111.999714,5.0,3.0,0.0,238.7109375,0.06909314391631258,-0.14366491988330948,1.4413242746306258,-0.1424407809972763,-0.0682983323931694,-0.9818267226219177,-0.14282962679862976,-0.06903818249702454,-0.9873365163803101,0.0003888458013534546,0.0007398501038551331,0.005509793758392334,-2.5037918090820312,-18.18537139892578,3.9293212890625,2
2021-09-02 09:38:32,34.329029247196694,134.05737251055805,16.13845443725586,1630543112.104348,5.0,3.0,0.0,238.7109375,0.06902117715217662,-0.14360990617457806,1.4412791623036831,-0.1422577053308487,-0.06939697265625,-0.982421875,-0.1427760273218155,-0.06896638870239258,-0.9873493313789368,0.0005183219909667969,-0.0004305839538574219,0.004927456378936768,-2.4564895629882812,-18.018943786621094,4.13531494140625,2
2021-09-02 09:38:32,34.329029247196694,134.05737251055805,16.13845443725586,1630543112.32602,5.0,3.0,0.0,238.7109375,0.0689029178739762,-0.1435825290262927,1.4412661861707718,-0.1429324746131897,-0.06794370710849762,-0.9810014963150024,-0.142755925655365,-0.06887634098529816,-0.9873585104942322,-0.00017654895782470703,0.0009326338768005371,0.006357014179229736,-2.3183135986328125,-18.130943298339844,4.01434326171875,2
2021-09-02 09:38:32,34.329029247196694,134.05737251055805,16.13845443725586,1630543112.536322,5.0,3.0,0.0,238.7109375,0.06895636122022585,-0.14367783902338005,1.4412883927332125,-0.1412811279296875,-0.0675048753619194,-0.98114013671875,-0.14284373819828033,-0.06890172511339188,-0.9873440265655518,0.0015626102685928345,0.0013968497514724731,0.006203889846801758,-2.5008087158203125,-18.0394287109375,4.06488037109375,2
2021-09-02 09:38:33,34.329029247196694,134.05737251055805,16.07332992553711,1630543112.9997077,5.0,3.0,0.0,238.7109375,0.06897432701335646,-0.14364719326503295,1.441282142682264,-0.1415252685546875,-0.0699005126953125,-0.9809722900390625,-0.1428132951259613,-0.06891965121030807,-0.9873471856117249,0.0012880265712738037,-0.000980861485004425,0.0063748955726623535,-2.6939010620117188,-18.24095916748047,4.20745849609375,2
2021-09-02 09:38:33,34.329029247196694,134.05737251055805,16.07332992553711,1630543112.9997077,5.0,3.0,0.0,238.7109375,0.06895634698387643,-0.14358049807636167,1.4413209716350108,-0.1441497653722763,-0.0674438327550888,-0.9844207167625427,-0.14274762570858002,-0.06890171021223068,-0.9873579144477844,-0.001402139663696289,0.0014578774571418762,0.0029371976852416992,-2.3411407470703125,-18.20476531982422,3.997802734375,2
2021-09-02 09:38:33,34.329029247196694,134.05737251055805,16.07332992553711,1630543113.1808162,5.0,3.0,0.0,238.7109375,0.06884426813817657,-0.14353249139049298,1.4413166282058323,-0.1414947360754013,-0.0684204027056694,-0.9832610487937927,-0.14270132780075073,-0.06878989934921265,-0.9873723983764648,0.0012065917253494263,0.0003694966435432434,0.004111349582672119,-2.3801040649414062,-18.16057586669922,3.92657470703125,2
2021-09-02 09:38:33,34.329029247196694,134.05737251055805,16.07332992553711,1630543113.402422,5.0,3.0,0.0,238.7109375,0.06878430852406575,-0.14348896682250153,1.4413053320239144,-0.1422882080078125,-0.070098876953125,-0.9822540283203125,-0.14265894889831543,-0.06873007863759995,-0.987382709980011,0.0003707408905029297,-0.001368798315525055,0.005128681659698486,-2.3607711791992188,-18.117942810058594,4.193359375,2
2021-09-02 09:38:34,34.329029247196694,134.05737251055805,16.07332992553711,1630543113.614026,5.0,3.0,0.0,238.7109375,0.06876991385245747,-0.14348713001090954,1.4413019264756453,-0.143341064453125,-0.0714111328125,-0.9821014404296875,-0.14265726506710052,-0.06871572136878967,-0.9873839616775513,-0.0006837993860244751,-0.002695411443710327,0.0052825212478637695,-2.4381256103515625,-18.12158203125,3.99383544921875,2
2021-09-02 09:38:34,34.329029247196694,134.05737251055805,15.30868148803711,1630543113.9996948,5.0,3.0,0.0,238.7109375,0.06884317049799843,-0.14354360472887376,1.4413037852675294,-0.14154052734375,-0.0680084154009819,-0.9848175048828125,-0.1427123099565506,-0.0687888041138649,-0.9873709082603455,0.0011717826128005981,0.0007803887128829956,0.002553403377532959,-2.3192291259765625,-18.04883575439453,3.94964599609375,2
2021-09-02 09:38:34,34.329029247196694,134.05737251055805,15.30868148803711,1630543114.274215,5.0,3.0,0.0,238.7109375,0.06893422819587619,-0.14352908384743135,1.4413195915686696,-0.1420898586511612,-0.0681915283203125,-0.9813995361328125,-0.14269708096981049,-0.06887964904308319,-0.987366795539856,0.000607222318649292,0.0006881207227706909,0.005967259407043457,-2.4721908569335938,-18.207489013671875,4.16650390625,2
2021-09-02 09:38:34,34.329029247196694,134.05737251055805,15.30868148803711,1630543114.274215,5.0,3.0,0.0,238.7109375,0.06898395713590111,-0.14352324361197874,1.4413140809275422,-0.142486572265625,-0.06964111328125,-0.982879638671875,-0.14269082248210907,-0.06892925500869751,-0.9873642325401306,0.00020425021648406982,-0.0007118582725524902,0.004484593868255615,-2.6379547119140625,-18.210662841796875,4.08746337890625,2
2021-09-02 09:38:34,34.329029247196694,134.05737251055805,15.30868148803711,1630543114.48554,5.0,3.0,0.0,238.7109375,0.06900402175129004,-0.14350640373695062,1.4412938372454682,-0.142425537109375,-0.0680694654583931,-0.9839019775390625,-0.14267399907112122,-0.06894927471876144,-0.9873652458190918,0.0002484619617462158,0.0008798092603683472,0.003463268280029297,-2.4841690063476562,-18.239791870117188,3.87200927734375,2
2021-09-02 09:38:35,34.329029247196694,134.05737251055805,14.69552230834961,1630543114.999681,5.0,3.0,0.0,238.7109375,0.06897991772826872,-0.14354272493114262,1.4413267031186658,-0.14337158203125,-0.0676574632525444,-0.9826507568359375,-0.14271008968353271,-0.06892522424459457,-0.98736172914505,-0.0006614923477172852,0.001267760992050171,0.004710972309112549,-2.169097900390625,-18.367530822753906,4.14300537109375,2
2021-09-02 09:38:35,34.329029247196694,134.05737251055805,14.69552230834961,1630543114.999681,5.0,3.0,0.0,238.7109375,0.06894951699726931,-0.14350665035477847,1.441293538505719,-0.140655517578125,-0.0679931640625,-0.9831085205078125,-0.1426747739315033,-0.0688949003815651,-0.9873689413070679,0.002019256353378296,0.000901736319065094,0.004260420799255371,-2.4133529663085938,-18.155166625976562,4.01708984375,2
2021-09-02 09:38:35,34.329029247196694,134.05737251055805,14.69552230834961,1630543115.12879,5.0,3.0,0.0,238.7109375,0.06892433706063296,-0.14342809139693488,1.4412572819265481,-0.14431889355182648,-0.06755757331848145,-0.9852768182754517,-0.14258258044719696,-0.06887917220592499,-0.9873833656311035,-0.0017363131046295166,0.0013215988874435425,0.0021065473556518555,-2.033477783203125,-18.12615203857422,4.00299072265625,2
2021-09-02 09:38:35,34.329029247196694,134.05737251055805,14.69552230834961,1630543115.348963,5.0,3.0,0.0,238.7109375,0.0688963057963046,-0.14341044321390614,1.441258895983748,-0.1427917629480362,-0.0662994384765625,-0.9834442138671875,-0.1425803154706955,-0.06884181499481201,-0.9873862862586975,-0.00021144747734069824,0.0025423765182495117,0.00394207239151001,-2.3520050048828125,-18.23175048828125,4.000244140625,2
2021-09-02 09:38:35,34.329029247196694,134.05737251055805,14.69552230834961,1630543115.557708,5.0,3.0,0.0,238.7109375,0.06886934652401897,-0.1433455730082246,1.4412669931663602,-0.1425018310546875,-0.0699005126953125,-0.9827728271484375,-0.14251652359962463,-0.06881491839885712,-0.9873973727226257,1.4692544937133789e-05,-0.0010855942964553833,0.004624545574188232,-2.3988571166992188,-18.22021484375,4.1234130859375,2
2021-09-02 09:38:36,34.329029247196694,134.05737251055805,14.85134506225586,1630543115.99967,5.0,3.0,0.0,238.7109375,0.06888554871412475,-0.14328074561223444,1.4412172386513509,-0.1421508491039276,-0.0684814304113388,-0.9838256239891052,-0.14245234429836273,-0.06883107870817184,-0.9874054789543152,0.00030149519443511963,0.00034964829683303833,0.003579854965209961,-2.4578628540039062,-18.246337890625,4.0570068359375,2
2021-09-02 09:38:36,34.329029247196694,134.05737251055805,14.85134506225586,1630543115.99967,5.0,3.0,0.0,238.7109375,0.0688638163664099,-0.1434292440567358,1.4412293242240677,-0.143951416015625,-0.0693206861615181,-0.9832305908203125,-0.1425991952419281,-0.0688094049692154,-0.9873858094215393,-0.0013522207736968994,-0.0005112811923027039,0.004155218601226807,-2.5502395629882812,-18.226730346679688,3.90582275390625,2
2021-09-02 09:38:36,34.329029247196694,134.05737251055805,14.85134506225586,1630543116.207582,5.0,3.0,0.0,238.7109375,0.06913917529225838,-0.1434275027094666,1.4404720489707445,-0.166534423828125,-0.07525634765625,-0.97314453125,-0.14259475469589233,-0.06908410787582397,-0.9873672723770142,-0.023939669132232666,-0.006172239780426025,0.01422274112701416,-2.4875564575195312,-18.317420959472656,3.960693359375,2
2021-09-02 09:38:36,34.329029247196694,134.05737251055805,14.85134506225586,1630543116.429194,5.0,3.0,0.0,238.7109375,0.06974633259357388,-0.14299566681380185,1.4550757575357733,-0.1419067531824112,-0.0873565673828125,-0.984283447265625,-0.14216236770153046,-0.0696897953748703,-0.9873870611190796,0.0002556145191192627,-0.0176667720079422,0.00310361385345459,-2.8271942138671875,-18.296707153320312,4.30072021484375,2
2021-09-02 09:38:37,34.329029247196694,134.05737251055805,14.85134506225586,1630543116.654282,5.0,3.0,0.0,238.7109375,0.06595507177223978,-0.14665252631445305,1.4730987104848385,-0.1765594333410263,-0.0466613695025444,-1.0109862685203552,-0.14580969512462616,-0.06590726226568222,-0.9871148467063904,-0.030749738216400146,0.019245892763137817,-0.023871421813964844,-3.410186767578125,-18.220840454101562,4.65411376953125,2
2021-09-02 09:38:37,34.329029247196694,134.05737251055805,14.76626205444336,1630543117.084414,5.0,3.0,0.0,238.7109375,0.038971367383545355,-0.14532522809363077,1.487981108138364,-0.1349945068359375,0.0601654015481472,-0.9962615966796875,-0.14470428228378296,-0.0389615036547184,-0.9887076020240784,0.009709775447845459,0.0991269052028656,-0.007553994655609131,-2.7961883544921875,-18.445335388183594,3.2459716796875,2
2021-09-02 09:38:37,34.329029247196694,134.05737251055805,14.76626205444336,1630543117.087301,5.0,3.0,0.0,238.7109375,0.07572317305520587,-0.1292028562183896,1.4451480138724173,-0.15618896484375,-0.06549072265625,-0.9420928955078125,-0.12847445905208588,-0.07565082609653473,-0.9888231754302979,-0.027714505791664124,0.010160103440284729,0.04673027992248535,-2.5795211791992188,-19.40605926513672,3.4322509765625,2
2021-09-02 09:38:37,34.329029247196694,134.05737251055805,14.76626205444336,1630543117.296622,5.0,3.0,0.0,238.7109375,0.09030005065647226,-0.09637166884843247,1.45546077806277,-0.2632293626666069,0.0465698316693306,-0.419097900390625,-0.0958305224776268,-0.09017737954854965,-0.9913044571876526,-0.1673988401889801,0.13674721121788025,0.5722065567970276,-1.4626693725585938,-21.526161193847656,3.833740234375,2
2021-09-02 09:38:37,34.329029247196694,134.05737251055805,14.76626205444336,1630543117.51472,5.0,3.0,0.0,238.7109375,0.0905447953754599,-0.06050355929550624,1.4500810036484129,-0.0179138146340847,-0.076629638671875,-0.9656219482421875,-0.06021895632147789,-0.09042112529277802,-0.9940813183784485,0.04230514168739319,0.013791486620903015,0.028459370136260986,1.0798492431640625,-23.84229278564453,9.2928466796875,2
2021-09-02 09:38:38,34.329029247196694,134.05737251055805,15.10140609741211,1630543117.9996438,5.0,3.0,0.0,238.7109375,0.07902261724397189,-0.03454743768774421,1.4604241065066814,-0.0305633544921875,0.010772705078125,-0.9679718017578125,-0.034432776272296906,-0.07894039899110794,-0.9962844848632812,0.0038694217801094055,0.08971310406923294,0.02831268310546875,3.60150146484375,-20.79639434814453,12.7880859375,2
2021-09-02 09:38:38,34.329029247196694,134.05737251055805,15.10140609741211,1630543117.9996438,5.0,3.0,0.0,238.7109375,0.07416675729837398,-0.0301440658986831,1.472035436205958,-0.0767974853515625,-0.1239776611328125,-0.9469451904296875,-0.03005664423108101,-0.07409878075122833,-0.9967978596687317,-0.04674084112048149,-0.04987888038158417,0.04985266923904419,3.6597442626953125,-16.31047821044922,7.47662353515625,2
2021-09-02 09:38:38,34.329029247196694,134.05737251055805,15.10140609741211,1630543118.16473,5.0,3.0,0.0,238.7109375,0.078086264330012,-0.027634590318002628,1.4387287312411603,-0.033477783203125,-0.1358489915728569,-1.05572509765625,-0.027546877041459084,-0.07800693064928055,-0.9965721964836121,-0.0059309061616659164,-0.057842060923576355,-0.05915290117263794,4.0117645263671875,-20.367874145507812,0.2513427734375,2
2021-09-02 09:38:38,34.329029247196694,134.05737251055805,15.10140609741211,1630543118.38303,5.0,3.0,0.0,238.7109375,0.0861191564489729,-0.018328366175828188,1.4062262302910449,0.00938415713608265,-0.1328125,-1.02532958984375,-0.01825941912829876,-0.08601274341344833,-0.9961267113685608,0.02764357626438141,-0.046799756586551666,-0.02920287847518921,4.880035400390625,-22.232017517089844,-1.33349609375,2
2021-09-02 09:38:39,34.329029247196694,134.05737251055805,15.10140609741211,1630543118.596458,5.0,3.0,0.0,238.7109375,0.0985905323320566,-0.018949314102088836,1.4272707706316836,-0.01283263973891735,-0.1093444898724556,-1.035552978515625,-0.018856165930628777,-0.09843089431524277,-0.9949652552604675,0.006023526191711426,-0.01091359555721283,-0.04058772325515747,3.725189208984375,-27.027992248535156,-1.52606201171875,2
2021-09-02 09:38:39,34.329029247196694,134.05737251055805,15.87746810913086,1630543118.9996326,5.0,3.0,0.0,222.5390625,0.11282944365883178,-0.05032092209102571,1.4623840338938154,0.0102081298828125,-0.0955963134765625,-0.959686279296875,-0.049979858100414276,-0.11259020119905472,-0.9923837184906006,0.060187987983226776,0.016993887722492218,0.032697439193725586,2.8298187255859375,-28.47979736328125,7.411376953125,2
2021-09-02 09:38:39,34.329029247196694,134.05737251055805,15.87746810913086,1630543119.246798,5.0,3.0,0.0,222.5390625,0.11185928107699249,-0.14528224854266844,1.6066640579312146,0.0147247314453125,-0.2381896898150444,-0.92791748046875,-0.14386692643165588,-0.11162615567445755,-0.9832811951637268,0.15859165787696838,-0.12656353414058685,0.05536371469497681,-2.3230819702148438,-23.5587158203125,7.7320556640625,2
2021-09-02 09:38:39,34.329029247196694,134.05737251055805,15.87746810913086,1630543119.246798,5.0,3.0,0.0,222.5390625,0.02693664782933351,-0.320216768183269,1.9824594804098166,-0.2267303168773651,-0.1943054236471653,-0.7619933485984802,-0.31465813517570496,-0.026933390647172928,-0.9488228559494019,0.08792781829833984,-0.16737203299999237,0.18682950735092163,-16.888153076171875,-19.79991912841797,6.324462890625,2
2021-09-02 09:38:39,34.329029247196694,134.05737251055805,15.87746810913086,1630543119.451806,5.0,3.0,0.0,222.5390625,-0.12837947466456076,-0.4552571146074448,2.3481850402651965,-0.4750213623046875,0.1194610446691513,-0.8911437392234802,-0.4360748827457428,0.12802712619304657,-0.8907568454742432,-0.0389464795589447,-0.008566081523895264,-0.00038689374923706055,-28.731048583984375,-17.395431518554688,11.14532470703125,2
2021-09-02 09:38:40,34.329029247196694,134.05737251055805,15.87746810913086,1630543119.661349,5.0,3.0,0.0,222.5390625,-0.21222617540090194,-0.4938660694947829,2.6134485810414927,-0.425018310546875,0.200836181640625,-0.9011688232421875,-0.4633983075618744,0.21063664555549622,-0.8607521057128906,0.03837999701499939,-0.009800463914871216,-0.040416717529296875,-35.577178955078125,-10.14727783203125,1.609619140625,2
2021-09-02 09:38:40,34.32902643925913,134.05737653387158,15.84615707397461,1630543119.9996228,5.0,3.0,0.46000000834465027,187.734375,-0.21699244687682365,-0.493524054269703,2.788147037640262,-0.3959808349609375,0.2690887451171875,-0.85406494140625,-0.4626230299472809,0.21529357135295868,-0.8600166440010071,0.06664219498634338,0.05379517376422882,0.00595170259475708,-38.080772399902344,-2.5446090698242188,5.5479736328125,2
2021-09-02 09:38:40,34.32902643925913,134.05737653387158,15.84615707397461,1630543120.3075662,5.0,3.0,0.46000000834465027,187.734375,-0.19813175960428042,-0.4797750440990093,2.9644503599358596,-0.4426575005054474,0.1558685302734375,-0.8674468994140625,-0.4525493085384369,0.19683799147605896,-0.8697435855865479,0.009891808032989502,-0.04096946120262146,0.0022966861724853516,-38.25048065185547,-2.7741165161132812,14.49810791015625,2
2021-09-02 09:38:40,34.32902643925913,134.05737653387158,15.84615707397461,1630543120.3075662,5.0,3.0,0.46000000834465027,187.734375,-0.14604939196109384,-0.44827989708626714,3.086505454313909,-0.44586181640625,0.122100830078125,-0.824798583984375,-0.4288017749786377,0.14553073048591614,-0.8915995955467224,-0.017060041427612305,-0.023429900407791138,0.06680101156234741,-37.82536315917969,3.6622772216796875,4.44879150390625,2
2021-09-02 09:38:40,34.32902643925913,134.05737653387158,15.84615707397461,1630543120.526585,5.0,3.0,0.46000000834465027,187.734375,-0.07091927746878046,-0.3915998071804985,-3.115409796020411,-0.4132537841796875,-0.1436004713177681,-0.548583984375,-0.3807081878185272,0.07085984200239182,-0.9219762086868286,-0.03254559636116028,-0.2144603133201599,0.3733922243118286,-37.306373596191406,0.1382293701171875,0.39898681640625,2
2021-09-02 09:38:41,34.329019608008046,134.05737703678577,16.25625228881836,1630543120.9996114,5.0,3.0,0.7699999809265137,118.4765625,-0.022477261134198127,-0.30500713706297783,-3.034029176882112,-0.3936920166015625,0.105316162109375,-0.83251953125,-0.3002241253852844,0.02247536927461624,-0.9536038637161255,-0.09346789121627808,0.08284079283475876,0.12108433246612549,-33.75334167480469,4.627464294433594,13.79132080078125,2
2021-09-02 09:38:41,34.329019608008046,134.05737703678577,16.25625228881836,1630543120.9996114,5.0,3.0,0.7699999809265137,118.4765625,0.0264246526229187,-0.2064058180552484,-3.0712512243532957,-0.2305450290441513,-0.0592193603515625,-0.7787780165672302,-0.2048717886209488,-0.026421576738357544,-0.9784321188926697,-0.025673240423202515,-0.032797783613204956,0.19965410232543945,-33.69123840332031,-0.7644577026367188,-13.35943603515625,2
2021-09-02 09:38:41,34.329019608008046,134.05737703678577,16.25625228881836,1630543121.164616,5.0,3.0,0.7699999809265137,118.4765625,0.05521155355569369,-0.07076751136240636,-3.103875017537431,-0.2306976318359375,-0.1041259765625,-0.7256011962890625,-0.0706007182598114,-0.05518350750207901,-0.9959770441055298,-0.1600969135761261,-0.04894246906042099,0.2703758478164673,-26.83129119873047,1.6578750610351562,-9.6212158203125,2
2021-09-02 09:38:41,34.329019608008046,134.05737703678577,16.25625228881836,1630543121.3822122,5.0,3.0,0.7699999809265137,118.4765625,0.047439890815891866,0.05667870751661284,3.005539653603758,0.0566711463034153,-0.100555419921875,0.2169189453125,0.05658463388681412,-0.047422099858522415,-0.997270941734314,8.651241660118103e-05,-0.053133320063352585,1.214189887046814,-19.62267303466797,-5.376152038574219,-19.14202880859375,2
2021-09-02 09:38:42,34.329019608008046,134.05737703678577,16.25625228881836,1630543121.585082,5.0,3.0,0.7699999809265137,118.4765625,0.07013011101280045,0.1322529081306533,2.851937608253195,0.298309326171875,-0.2260589599609375,-0.6974639892578125,0.13154356181621552,-0.07007263600826263,-0.9888306856155396,0.16676576435565948,-0.15598632395267487,0.29136669635772705,-14.49334716796875,-3.6803054809570312,-17.33807373046875,2
2021-09-02 09:38:42,34.32901248339035,134.05738256884186,16.58718490600586,1630543121.9996011,5.0,3.0,0.7699999809265137,120.5859375,0.10738384981737692,0.1415787127087221,2.780426220532363,0.1617431640625,-0.1723785400390625,0.023346006870269775,0.1402934193611145,-0.10717759281396866,-0.9842919707298279,0.021449744701385498,-0.06520094722509384,1.0076379776000977,-11.224884033203125,-14.034965515136719,-21.66998291015625,2
2021-09-02 09:38:42,34.32901248339035,134.05738256884186,16.58718490600586,1630543122.230713,5.0,3.0,0.7699999809265137,120.5859375,0.17371449724618043,0.11920034288899013,3.112507267223885,-0.0567779541015625,0.4860839992761612,-1.86187744140625,0.11712849140167236,-0.1728421300649643,-0.9779604077339172,-0.17390644550323486,0.6589261293411255,-0.8839170336723328,-16.284767150878906,-12.882179260253906,-22.655029296875,2
2021-09-02 09:38:42,34.32901248339035,134.05738256884186,16.58718490600586,1630543122.230713,5.0,3.0,0.7699999809265137,120.5859375,0.10350186780559442,0.2209539660333286,2.8287395847316454,-0.0135650634765625,0.028656005859375,-0.7530059814453125,0.21798765659332275,-0.10331717133522034,-0.9704673886299133,-0.23155272006988525,0.13197317719459534,0.21746140718460083,-7.511497497558594,-25.44664764404297,-12.13348388671875,2
2021-09-02 09:38:42,34.32901248339035,134.05738256884186,16.58718490600586,1630543122.446552,5.0,3.0,0.7699999809265137,120.5859375,0.03624260201951652,0.272321674588143,2.5336923759589487,0.056671142578125,0.3351593092083931,-1.2554473876953125,0.26879164576530457,-0.036234669387340546,-0.9625165462493896,-0.21212050318717957,0.37139397859573364,-0.29293084144592285,1.4327850341796875,-18.195167541503906,-16.245849609375,2
2021-09-02 09:38:43,34.329000706816394,134.05739128602116,16.32503890991211,1630543122.9995933,5.0,3.0,1.1299999952316284,141.328125,0.028103334130908212,0.274613654837343,2.3064139893707787,0.23260498046875,-0.26213074661791325,-1.241546630859375,0.2710680067539215,-0.028099635615944862,-0.962149977684021,-0.03846302628517151,-0.23403111100196838,-0.279396653175354,6.1437225341796875,-22.071563720703125,-17.35137939453125,2
2021-09-02 09:38:43,34.329000706816394,134.05739128602116,16.32503890991211,1630543122.9995933,5.0,3.0,1.1299999952316284,141.328125,0.06553347996115676,0.1993207376318792,2.164056089027642,0.1804199069738388,-0.41900634765625,-0.8924560546875,0.1975785344839096,-0.06548658013343811,-0.9780972599983215,-0.0171586275100708,-0.3535197675228119,0.08564120531082153,9.727188110351562,-20.47106170654297,-5.10113525390625,2
2021-09-02 09:38:43,34.329000706816394,134.05739128602116,16.32503890991211,1630543123.083202,5.0,3.0,1.1299999952316284,141.328125,0.11607556801404993,0.13094885746917412,2.3324860592111003,-0.0633697658777237,0.1780090481042862,-0.882476806640625,0.12969626486301422,-0.11581508815288544,-0.9847668409347534,-0.19306603074073792,0.29382413625717163,0.10229003429412842,3.69580078125,-20.248947143554688,-12.3338623046875,2
2021-09-02 09:38:43,34.329000706816394,134.05739128602116,16.32503890991211,1630543123.3061771,5.0,3.0,1.1299999952316284,141.328125,0.09033791520911211,0.15036480553711562,2.108697081348565,0.194915771484375,0.017806999385356903,-0.7598724365234375,0.14918799698352814,-0.09021509438753128,-0.9846848249435425,0.04572777450084686,0.10802209377288818,0.22481238842010498,8.575668334960938,-15.173225402832031,-14.6844482421875,2
2021-09-02 09:38:43,34.329000706816394,134.05739128602116,16.32503890991211,1630543123.52745,5.0,3.0,1.1299999952316284,141.328125,0.11579016941000111,0.11317655007115852,2.1972040943529483,0.1807250902056694,0.0907745286822319,-1.202423095703125,0.11217885464429855,-0.11553160101175308,-0.9869490265846252,0.06854623556137085,0.20630612969398499,-0.21547406911849976,7.9040374755859375,-30.219619750976562,-4.64007568359375,2
2021-09-02 09:38:44,34.32898620612391,134.05739463878243,15.43032455444336,1630543123.9995832,5.0,3.0,1.409999966621399,165.5859375,0.1352944913173866,0.0566883445799177,2.3124352958252334,0.1376342736184597,-0.165008544921875,-0.772979736328125,0.0561402253806591,-0.1348821222782135,-0.9892699718475342,0.0814940482378006,-0.0301264226436615,0.21629023551940918,2.865966796875,-21.46917724609375,-12.8277587890625,2
2021-09-02 09:38:44,34.32898620612391,134.05739463878243,15.43032455444336,1630543123.9995832,5.0,3.0,1.409999966621399,165.5859375,0.12848687392458236,0.07136329600126642,2.2763762180262552,-0.04888916015625,0.0806884914636612,-0.9313201308250427,0.07071498781442642,-0.1281336396932602,-0.98923259973526,-0.11960414797067642,0.2088221311569214,0.057912468910217285,5.6380615234375,-25.96038055419922,-6.593505859375,2
2021-09-02 09:38:44,34.32898620612391,134.05739463878243,15.43032455444336,1630543124.162807,5.0,3.0,1.409999966621399,165.5859375,0.08869378836729636,0.1427009645736152,2.0202313854453124,-0.0132293701171875,0.0525665208697319,-1.2196502685546875,0.14165812730789185,-0.08857754617929459,-0.9859447479248047,-0.15488749742507935,0.1411440670490265,-0.2337055206298828,12.5841064453125,-20.993980407714844,-16.74072265625,2
2021-09-02 09:38:44,34.32898620612391,134.05739463878243,15.43032455444336,1630543124.37398,5.0,3.0,1.409999966621399,165.5859375,0.05385097308776077,0.19793906751457116,1.7800900602945584,0.2649993896484375,0.030883800238370895,-1.0276488661766052,0.19636400043964386,-0.05382495000958443,-0.9790526032447815,0.06863538920879364,0.08470875024795532,-0.04859626293182373,21.985733032226562,-17.771453857421875,-7.2724609375,2
2021-09-02 09:38:45,34.32898620612391,134.05739463878243,15.43032455444336,1630543124.583775,5.0,3.0,1.409999966621399,165.5859375,0.0750544031667632,0.16085893227947415,1.7040305419577957,0.055816650390625,-0.01470947265625,-0.7690277099609375,0.1597152054309845,-0.07498395442962646,-0.9843111634254456,-0.1038985550403595,0.060274481773376465,0.21528345346450806,21.841110229492188,-15.568840026855469,-15.984130859375,2
2021-09-02 09:38:45,34.328970951060136,134.0573871788886,14.06185531616211,1630543124.9995697,5.0,3.0,1.2400000095367432,182.4609375,0.09517743324096171,0.12184547303459821,1.660805936756662,0.2154235690832138,0.008148200809955597,-1.1078643202781677,0.12099409848451614,-0.09503380209207535,-0.9880936145782471,0.09442947059869766,0.10318200290203094,-0.11977070569992065,21.27447509765625,-10.803146362304688,-15.1318359375,2
2021-09-02 09:38:45,34.328970951060136,134.0573871788886,14.06185531616211,1630543125.225862,5.0,3.0,1.2400000095367432,182.4609375,0.09115875032442104,0.11951830960269634,1.5593003594653259,0.0074462890625,-0.026275634765625,-0.6971282958984375,0.11873889714479446,-0.09103254973888397,-0.9887437224388123,-0.11129260808229446,0.06475691497325897,0.29161542654037476,21.810455322265625,-22.084312438964844,-22.63128662109375,2
2021-09-02 09:38:45,34.328970951060136,134.0573871788886,14.06185531616211,1630543125.225862,5.0,3.0,1.2400000095367432,182.4609375,0.0750148409801837,0.12886334876373784,1.3734471336709315,0.4791412353515625,-0.2612304762005806,-0.942962646484375,0.12814560532569885,-0.07494450360536575,-0.9889196157455444,0.35099563002586365,-0.18628597259521484,0.045956969261169434,26.190338134765625,-10.216278076171875,-17.23406982421875,2
2021-09-02 09:38:45,34.328970951060136,134.0573871788886,14.06185531616211,1630543125.4484649,5.0,3.0,1.2400000095367432,182.4609375,0.11196673037787637,0.02827606284941793,1.465865482830367,0.29844664223492146,0.180694580078125,-1.174835205078125,0.028095262125134468,-0.11173292994499207,-0.9933410286903381,0.270351380109787,0.29242751002311707,-0.18149417638778687,21.282012939453125,-15.254623413085938,-22.0174560546875,2
